CODIGO_OSINERGMIN,RAZON_SOCIAL,RUC,DEPARTAMENTO,PROVINCIA,DISTRITO,DIRECCION,LATITUD,LONGITUD,TIPO_ESTABLECIMIENTO
EST_SERV_001,Estación San Isidro S.A.C.,20451234567,LIMA,LIMA,SAN ISIDRO,Av. Javier Prado 450,-12.097,-77.036,ESTACION DE SERVICIO
EST_SERV_002,Grifos del Norte E.I.R.L.,20567891234,LIMA,LIMA,LA MOLINA,Av. La Molina 1230,-12.075,-76.945,GRIFO
EST_SERV_003,Corporación Fuel Power S.A.,20612345678,CALLAO,CALLAO,CALLAO,Av. Argentina 890,-12.055,-77.085,ESTACION DE SERVICIO
EST_SERV_004,Servicentro El Rápido S.R.L.,20698765432,LIMA,LIMA,SANTIAGO DE SURCO,Av. Caminos del Inca 230,-12.120,-77.010,GRIFO
EST_SERV_005,Inversiones Mejía & Hijos,20543219876,LIMA,LIMA,COMAS,Av. Túpac Amaru 5670,-11.955,-77.065,GRIFO
